[{"deaths": 1, "lon": "79.5111795", "date": "2012-01-01T00:00:00", "location": "Kazipet junction", "vehicle": "RTC bus x pedestrian", "lat": "17.9747022", "injuries": 0}, {"deaths": 0, "lon": "79.5111795", "date": "2012-01-01T00:00:00", "location": "Kazipet junction", "vehicle": "Car x truck", "lat": "17.9747022", "injuries": 0}, {"deaths": 0, "lon": "79.516093", "date": "2012-01-01T00:00:00", "location": "FCI \u2018x\u2019 roads", "vehicle": "Motorcycle x mini truck", "lat": "17.980535", "injuries": 1}, {"deaths": 1, "lon": "79.518999", "date": "2012-01-01T00:00:00", "location": "Fatimanagar Rly. Bridge", "vehicle": "Motorcycle x mini truck", "lat": "17.982444", "injuries": 0}, {"deaths": 1, "lon": "79.518999", "date": "2012-01-01T00:00:00", "location": "Fatimanagar Rly. Bridge", "vehicle": "DCM x motorcycle", "lat": "17.982444", "injuries": 0}, {"deaths": 0, "lon": "79.518999", "date": "2012-01-01T00:00:00", "location": "Fatimanagar Rly. Bridge", "vehicle": "Car", "lat": "17.982444", "injuries": 0}, {"deaths": 0, "lon": "79.518999", "date": "2012-01-01T00:00:00", "location": "Fatimanagar Rly. Bridge", "vehicle": "Car x auto", "lat": "17.982444", "injuries": 0}, {"deaths": 0, "lon": "79.518999", "date": "2012-01-01T00:00:00", "location": "Fatimanagar Rly. Bridge", "vehicle": "Bus x motorcycle", "lat": "17.982444", "injuries": 0}, {"deaths": 0, "lon": "79.518999", "date": "2012-01-01T00:00:00", "location": "Fatimanagar Rly. Bridge", "vehicle": "Bus x car", "lat": "17.982444", "injuries": 0}, {"deaths": 0, "lon": "79.518999", "date": "2012-01-01T00:00:00", "location": "Fatimanagar Rly. Bridge", "vehicle": "Bus x auto", "lat": "17.982444", "injuries": 3}, {"deaths": 0, "lon": "79.518999", "date": "2012-01-01T00:00:00", "location": "Fatimanagar Rly. Bridge", "vehicle": "Tanker x motorcycle", "lat": "17.982444", "injuries": 2}, {"deaths": 0, "lon": "79.518999", "date": "2012-01-01T00:00:00", "location": "Fatimanagar Rly. Bridge", "vehicle": "DCM x motorcycle", "lat": "17.982444", "injuries": 1}, {"deaths": 0, "lon": "78.6804698", "date": "2012-01-01T00:00:00", "location": "Fatimanagar Bus stop", "vehicle": "Van x auto", "lat": "10.7983395", "injuries": 1}, {"deaths": 0, "lon": "79.617081", "date": "2012-01-01T00:00:00", "location": "Golden caf\u00e9 junction, Fatimanagar", "vehicle": "Motorcycle x mini truck", "lat": "17.973801", "injuries": 1}, {"deaths": 0, "lon": "79.617081", "date": "2012-01-01T00:00:00", "location": "Golden caf\u00e9 junction, Fatimanagar", "vehicle": "Car x car", "lat": "17.973801", "injuries": 0}, {"deaths": 0, "lon": "79.617081", "date": "2012-01-01T00:00:00", "location": "Golden caf\u00e9 junction, Fatimanagar", "vehicle": "Car x truck", "lat": "17.973801", "injuries": 0}, {"deaths": 1, "lon": "79.5252576", "date": "2012-01-01T00:00:00", "location": "Kumar mess", "vehicle": "Car x motorcycle", "lat": "17.9863918", "injuries": 0}, {"deaths": 1, "lon": "79.5329481", "date": "2012-01-01T00:00:00", "location": "NIT 2nd gate", "vehicle": "Motorcycle x truck", "lat": "17.9805959", "injuries": 0}, {"deaths": 0, "lon": "79.5329481", "date": "2012-01-01T00:00:00", "location": "NIT 2nd gate", "vehicle": "Car x motorcycle", "lat": "17.9805959", "injuries": 1}, {"deaths": 0, "lon": "79.5329481", "date": "2012-01-01T00:00:00", "location": "NIT main gate ", "vehicle": "Car x auto", "lat": "17.9805959", "injuries": 0}, {"deaths": 0, "lon": "79.5329481", "date": "2012-01-01T00:00:00", "location": "NIT main gate", "vehicle": "Motorcycle X motorcycle", "lat": "17.9805959", "injuries": 1}, {"deaths": 0, "lon": "79.5329481", "date": "2012-01-01T00:00:00", "location": "NIT main gate", "vehicle": "Bus x car", "lat": "17.9805959", "injuries": 0}, {"deaths": 0, "lon": "79.533564", "date": "2012-01-01T00:00:00", "location": "Kalinga", "vehicle": "Bus x motorcycle", "lat": "17.989016", "injuries": 1}, {"deaths": 0, "lon": "79.533564", "date": "2012-01-01T00:00:00", "location": "Kalinga", "vehicle": "Motorcycle X motorcycle", "lat": "17.989016", "injuries": 1}, {"deaths": 0, "lon": "79.533564", "date": "2012-01-01T00:00:00", "location": "Kalinga", "vehicle": "Truck x car", "lat": "17.989016", "injuries": 0}, {"deaths": 0, "lon": "79.533564", "date": "2012-01-01T00:00:00", "location": "Kalinga", "vehicle": "Auto x auto", "lat": "17.989016", "injuries": 1}, {"deaths": 0, "lon": "79.533564", "date": "2012-01-01T00:00:00", "location": "Kalinga", "vehicle": "Motorcycle x truck", "lat": "17.989016", "injuries": 1}, {"deaths": 1, "lon": "79.596198", "date": "2012-01-01T00:00:00", "location": "A to Z Medicals", "vehicle": "Car x pedestrian", "lat": "17.98949", "injuries": 0}, {"deaths": 0, "lon": "79.5388416", "date": "2012-01-01T00:00:00", "location": "Forrest office", "vehicle": "Car x cycle", "lat": "17.9912764", "injuries": 1}, {"deaths": 1, "lon": "79.5388416", "date": "2012-01-01T00:00:00", "location": "Forrest office", "vehicle": "Car x pedestrian", "lat": "17.9912764", "injuries": 0}, {"deaths": 0, "lon": "79.5388416", "date": "2012-01-01T00:00:00", "location": "Forrest office", "vehicle": "Motorcycle X pedestrian", "lat": "17.9912764", "injuries": 1}, {"deaths": 0, "lon": "79.524581", "date": "2012-01-01T00:00:00", "location": "Wadepalli \u2018X\u2019 road", "vehicle": "Car x car", "lat": "17.985726", "injuries": 0}, {"deaths": 0, "lon": "79.524581", "date": "2012-01-01T00:00:00", "location": "Wadepalli \u2018X\u2019 road", "vehicle": "Car x motorcycle", "lat": "17.985726", "injuries": 1}, {"deaths": 1, "lon": "79.5406819", "date": "2012-01-01T00:00:00", "location": "Redcross, subedari", "vehicle": "Car x pedestrian", "lat": "17.9937822", "injuries": 0}, {"deaths": 0, "lon": "79.5406819", "date": "2012-01-01T00:00:00", "location": "Redcross, subedari", "vehicle": "Motorcycle X motorcycle", "lat": "17.9937822", "injuries": 1}, {"deaths": 0, "lon": "79.5407839", "date": "2012-01-01T00:00:00", "location": "Subedari bus stop", "vehicle": "Motorcycle X pedestrian", "lat": "17.9932024", "injuries": 1}, {"deaths": 0, "lon": "79.5422546", "date": "2012-01-01T00:00:00", "location": "Collector office", "vehicle": "Car x motorcycle", "lat": "17.9929853", "injuries": 1}, {"deaths": 0, "lon": "79.5422546", "date": "2012-01-01T00:00:00", "location": "Collector office", "vehicle": "Motorcycle X pedestrian", "lat": "17.9929853", "injuries": 1}, {"deaths": 0, "lon": "79.5422546", "date": "2012-01-01T00:00:00", "location": "Collector office", "vehicle": "Car x motorcycle", "lat": "17.9929853", "injuries": 1}, {"deaths": 1, "lon": "79.5422546", "date": "2012-01-01T00:00:00", "location": "Collector office", "vehicle": "Motorcycle X pedestrian", "lat": "17.9929853", "injuries": 0}, {"deaths": 1, "lon": "79.5422546", "date": "2012-01-01T00:00:00", "location": "Collector office", "vehicle": "Motorcycle ", "lat": "17.9929853", "injuries": 0}, {"deaths": 0, "lon": "79.5422546", "date": "2012-01-01T00:00:00", "location": "Collector office", "vehicle": "Truck x car", "lat": "17.9929853", "injuries": 0}, {"deaths": 0, "lon": "79.5422546", "date": "2012-01-01T00:00:00", "location": "Collector office", "vehicle": "Motorcycle X motorcycle", "lat": "17.9929853", "injuries": 1}, {"deaths": 0, "lon": "79.5422546", "date": "2012-01-01T00:00:00", "location": "Collector office", "vehicle": "Car x motorcycle", "lat": "17.9929853", "injuries": 2}, {"deaths": 0, "lon": "79.6098518", "date": "2012-01-01T00:00:00", "location": "Arts college", "vehicle": "Car x cycle", "lat": "18.0001145", "injuries": 1}, {"deaths": 1, "lon": "79.5461301", "date": "2012-01-01T00:00:00", "location": "Rohini hospital", "vehicle": "Car x motorcycle", "lat": "17.9953606", "injuries": 0}, {"deaths": 1, "lon": "79.5461301", "date": "2012-01-01T00:00:00", "location": "Rohini hospital", "vehicle": "Mini truck x pedestrian", "lat": "17.9953606", "injuries": 0}, {"deaths": 0, "lon": "79.5472234", "date": "2012-01-01T00:00:00", "location": "DIG  office", "vehicle": "Auto x pedestrian", "lat": "17.9948288", "injuries": 1}, {"deaths": 0, "lon": "79.5485801", "date": "2012-01-01T00:00:00", "location": "Dolphin bakery", "vehicle": "Car x pedestrian", "lat": "17.9951961", "injuries": 1}, {"deaths": 0, "lon": "79.5506461", "date": "2012-01-01T00:00:00", "location": "Spencers ", "vehicle": "Motorcycle X pedestrian", "lat": "17.9961075", "injuries": 1}, {"deaths": 0, "lon": "79.5533665", "date": "2012-01-01T00:00:00", "location": "Adalat junction", "vehicle": "Motorcycle X pedestrian", "lat": "17.9950762", "injuries": 1}, {"deaths": 0, "lon": "79.5533665", "date": "2012-01-01T00:00:00", "location": "Adalat junction", "vehicle": "Motorcycle X pedestrian", "lat": "17.9950762", "injuries": 1}, {"deaths": 0, "lon": "79.5512362", "date": "2012-01-01T00:00:00", "location": "A to Z bazaar", "vehicle": "Car x pedestrian", "lat": "17.9967987", "injuries": 1}, {"deaths": 0, "lon": "79.5521495", "date": "2012-01-01T00:00:00", "location": "Adalat 2nd gate", "vehicle": "Motorcycle X cycle", "lat": "17.9970603", "injuries": 1}, {"deaths": 0, "lon": "79.5547257", "date": "2012-01-01T00:00:00", "location": "TMC,hanamkonda", "vehicle": "Car x motorcycle", "lat": "17.9981342", "injuries": 1}, {"deaths": 0, "lon": "79.5542335", "date": "2012-01-01T00:00:00", "location": "IOB Nakkalguta", "vehicle": "Motorcycle X motorcycle", "lat": "18.0060541", "injuries": 1}]